{"pois":[{"id":0,"name":"广东省深圳市宝安区大宝路47号(大宝路创业二路路口)","color":"red","lat":22.57759,"lon":113.914101,"towards":null},{"id":0,"name":"广东省深圳市宝安区大宝路33号(广深高速入口闸道)","color":"red","lat":22.571779,"lon":113.919897,"towards":null},{"id":0,"name":"","color":"red","lat":22.587346,"lon":113.92123,"towards":null},{"id":3367088583799309163,"name":"107国道(广深公路)创业立交","color":"red","lat":22.564268,"lon":113.897331,"towards":null},{"id":0,"name":"宝民一路裕安二路路口","color":"red","lat":22.567938,"lon":113.895748,"towards":null},{"id":0,"name":"","color":"red","lat":22.571557,"lon":113.892056,"towards":null},{"id":0,"name":"宝安区前进一路216号(深圳市文汇学校东北)","color":"red","lat":22.576684,"lon":113.896342,"towards":null},{"id":0,"name":"前进二路与新安四路交叉口北","color":"red","lat":22.579982,"lon":113.893208,"towards":null},{"id":0,"name":"广东省深圳市宝安区流塘路与前进二路交叉口","color":"blue","lat":22.583859,"lon":113.889254,"towards":[{"lat":22.584733,"lon":113.890559,"auth":"manager","status":"close"},{"lat":22.582899,"lon":113.890143,"auth":"manager","status":"close"},{"lat":22.582478,"lon":113.887527,"auth":"manager","status":"close"},{"lat":22.5847,"lon":113.888353,"auth":"manager","status":"close"}]},{"id":0,"name":"建安二路流塘路路口","color":"red","lat":22.581439,"lon":113.886258,"towards":[{"lat":22.582462,"lon":113.887497,"auth":"manager","status":"unknown"},{"lat":22.580436,"lon":113.885026,"auth":"manager","status":"open"}]},{"id":0,"name":"广东省深圳市宝安区广深路G107西乡段流塘天桥","color":"red","lat":22.579416,"lon":113.881812,"towards":[{"lat":22.577939,"lon":113.883274,"auth":"manager","status":"open"},{"lat":22.580591,"lon":113.880654,"auth":"manager","status":"open"}]},{"id":0,"name":"宝安区西乡大道锦花路口(御龙居东南)","color":"red","lat":22.590208,"lon":113.890855,"towards":null},{"id":0,"name":"宝安大道与西乡大道交叉口","color":"red","lat":22.578218,"lon":113.867756,"towards":[{"lat":22.579865,"lon":113.870694,"auth":"manager","status":"open"},{"lat":22.575879,"lon":113.870501,"auth":"manager","status":"open"},{"lat":22.575013,"lon":113.86593,"auth":"manager","status":"open"},{"lat":22.580195,"lon":113.865722,"auth":"manager","status":"open"}]},{"id":0,"name":"西乡大道与兴业路交叉口","color":"red","lat":22.566465,"lon":113.857756,"towards":[{"lat":22.568441,"lon":113.859633,"auth":"user","status":"close"},{"lat":22.565142,"lon":113.860065,"auth":"user","status":"close"},{"lat":22.565417,"lon":113.856745,"auth":"manager","status":"open"}]},{"id":0,"name":"宝安区西乡大道沿江高速立交桥路段(佳鸿世界名车博览中心北)","color":"red","lat":22.563996,"lon":113.855125,"towards":null},{"id":7399816797504441022,"name":"金湾大道西乡大道北侧","color":"red","lat":22.5611,"lon":113.85241,"towards":[{"lat":22.55945,"lon":113.854288,"auth":"manager","status":"open"},{"lat":22.563258,"lon":113.850953,"auth":"manager","status":"open"}]},{"id":0,"name":"铲岛路与绿海名居路交叉口(宝安第一外国语学校初中部)","color":"red","lat":22.562472,"lon":113.860379,"towards":null},{"id":0,"name":"金科路与罗田路交叉口北侧-新安润恒御园南","color":"red","lat":22.553065,"lon":113.873042,"towards":null},{"id":0,"name":"新湖路与裕安一路交叉口(宝安体育场东)","color":"red","lat":22.557834,"lon":113.88389,"towards":null},{"id":2789728267864386975,"name":"裕安一路与自由路交叉口","color":"blue","lat":22.565771,"lon":113.893027,"towards":[{"lat":22.559934,"lon":113.881713,"auth":"user","status":"close"},{"lat":22.565003,"lon":113.893785,"auth":"user","status":"close"},{"lat":22.564995,"lon":113.892282,"auth":"user","status":"close"},{"lat":22.56645,"lon":113.892278,"auth":"user","status":"close"}]},{"id":0,"name":"宝安大道甲岸路口(豪城馨庭居西南)","color":"red","lat":22.553456,"lon":113.897057,"towards":[{"lat":22.550998,"lon":113.899433,"auth":"manager","status":"open"},{"lat":22.555397,"lon":113.894787,"auth":"manager","status":"open"}]},{"id":0,"name":"广东省深圳市宝安区前进一路龙井二路段(御景台东)","color":"red","lat":22.559421,"lon":113.913764,"towards":[{"lat":22.558271,"lon":113.914859,"auth":"user","status":"open"},{"lat":22.5609,"lon":113.912178,"auth":"manager","status":"open"}]},{"id":0,"name":"广东省深圳市宝安区前进一路40号(阳光家庭)","color":"red","lat":22.558907,"lon":113.914341,"towards":null},{"id":0,"name":"广东省深圳市宝安区湖滨东路27号荔山检查站入口(新鸿强餐厅东)","color":"red","lat":22.556539,"lon":113.914219,"towards":[{"lat":22.556802,"lon":113.91459,"auth":"manager","status":"open"},{"lat":22.556204,"lon":113.913746,"auth":"user","status":"open"}]},{"id":0,"name":"广深公路入北环大道辅道南头检查站(路南山区OT天台篮球公园(智恒店)东)","color":"red","lat":22.550742,"lon":113.909687,"towards":[{"lat":22.550156,"lon":113.910955,"auth":"manager","status":"open"}]},{"id":0,"name":"北环大道入广深公路辅道南头检查站出口（南方腾星汽车销售服务有限公司）-","color":"red","lat":22.549471,"lon":113.91239,"towards":null},{"id":0,"name":"南山区深南北环立交桥","color":"red","lat":22.548162,"lon":113.912967,"towards":null},{"id":0,"name":"月亮湾大道深南立交","color":"red","lat":22.541956,"lon":113.909549,"towards":[{"lat":22.544555,"lon":113.9096,"auth":"manager","status":"open"}]},{"id":0,"name":"南山区月亮湾大道桂湾三路北侧(北大附中深圳南山分校)","color":"red","lat":22.536955,"lon":113.909462,"towards":[{"lat":22.533893,"lon":113.909604,"auth":"manager","status":"open"}]},{"id":0,"name":"","color":"red","lat":22.515778,"lon":113.90577,"towards":null},{"id":0,"name":"广东省深圳市南山区前海路1019号鼎太风化人行天桥(鼎太风华六期东南)","color":"red","lat":22.515776,"lon":113.910517,"towards":[{"lat":22.513545,"lon":113.908598,"auth":"manager","status":"open"},{"lat":22.519403,"lon":113.913721,"auth":"manager","status":"open"}]},{"id":0,"name":"广东省深圳市南山区前海路广深沿江高速桥路段","color":"red","lat":22.507888,"lon":113.902739,"towards":[{"lat":22.506669,"lon":113.900654,"auth":"manager","status":"open"},{"lat":22.51021,"lon":113.905239,"auth":"manager","status":"open"}]},{"id":0,"name":"","color":"red","lat":22.52724,"lon":113.929301,"towards":null},{"id":0,"name":"广东省深圳市南山区深南大道南海立交（腾讯大厦西南）","color":"red","lat":22.539641,"lon":113.933705,"towards":[{"lat":22.53957,"lon":113.939411,"auth":"manager","status":"open"},{"lat":22.539672,"lon":113.931856,"auth":"manager","status":"open"}]},{"id":0,"name":"广东省深圳市南山区沙河西路深南大道立交","color":"red","lat":22.540328,"lon":113.959057,"towards":[{"lat":22.540321,"lon":113.956056,"auth":"manager","status":"open"}]},{"id":0,"name":"广东省深圳市南山区沙河西路高新南九道交叉","color":"red","lat":22.529884,"lon":113.954853,"towards":[{"lat":22.528326,"lon":113.954737,"auth":"user","status":"open"},{"lat":22.531342,"lon":113.954919,"auth":"manager","status":"open"}]},{"id":0,"name":"南山区滨海大道沙河西路出口(东向西左转进沙河西路)","color":"red","lat":22.520853,"lon":113.953935,"towards":[{"lat":22.531342,"lon":113.954919,"auth":"manager","status":"open"}]},{"id":0,"name":"南山区滨海沙河东立交桥西南","color":"red","lat":22.520011,"lon":113.963335,"towards":null},{"id":0,"name":"","color":"red","lat":22.553714,"lon":113.966663,"towards":null},{"id":0,"name":"南山区北环沙河西立交","color":"red","lat":22.553362,"lon":113.957812,"towards":[{"lat":22.553386,"lon":113.962985,"auth":"manager","status":"open"},{"lat":22.552534,"lon":113.951222,"auth":"manager","status":"open"}]},{"id":0,"name":"同安路荔山检查站出口","color":"red","lat":22.557182,"lon":113.920409,"towards":null},{"id":0,"name":"宝安区宝荔路与宝石路辅路交叉口","color":"red","lat":22.610166,"lon":113.925661,"towards":null},{"id":0,"name":"广东省深圳市宝安区牛成村路(陈村花场东)","color":"red","lat":22.614348,"lon":113.925939,"towards":null},{"id":0,"name":"广东省深圳市宝安区宝石路牛成221大厦西北","color":"red","lat":22.61709,"lon":113.925913,"towards":null},{"id":0,"name":"广东省深圳市宝安区南光高速公路宝石收费站北侧","color":"red","lat":22.618113,"lon":113.923267,"towards":null},{"id":0,"name":"南山区南岗工业区公交站南(X256)","color":"red","lat":22.630796,"lon":113.935046,"towards":null},{"id":0,"name":"宝石路松柏路路口","color":"red","lat":22.640975,"lon":113.926323,"towards":null},{"id":0,"name":"松柏路塘头一号路路口","color":"red","lat":22.640049,"lon":113.925105,"towards":null},{"id":0,"name":"宝安区宝源路松茂柏景湾路口(西南方一个，北方一个)","color":"red","lat":22.586659,"lon":113.840625,"towards":null},{"id":0,"name":"广东省深圳市宝安区金湾大道西湾公园北侧","color":"red","lat":22.591614,"lon":113.835298,"towards":null},{"id":0,"name":"宝安大道与固戍一路交叉口","color":"red","lat":22.596883,"lon":113.849217,"towards":null},{"id":0,"name":"留仙一路创业二路路口","color":"red","lat":22.578934,"lon":113.915625,"towards":null}]}